{
  "community": [{
    "name": "由隆花园",
    "position": {
      "O": 31.232003,
      "M": 121.501351,
      "lng": 121.501351,
      "lat": 31.232003
    },
    "address": "富城路与拾步街交叉口西100米",
    "type": "商务住宅;住宅区;住宅区",
    "bu": 0
  }, {
    "name": "港汇公寓",
    "position": {
      "O": 31.211032,
      "M": 121.43515400000001,
      "lng": 121.435154,
      "lat": 31.211032
    },
    "address": "华山路1118号(近虹桥路)",
    "type": "商务住宅;住宅区;住宅区",
    "bu": 0
  }, {
    "name": "俞家弄",
    "position": {
      "O": 31.21663,
      "M": 121.49604,
      "lng": 121.49604,
      "lat": 31.21663
    },
    "address": "黄家路99弄33号",
    "type": "商务住宅;住宅区;住宅区",
    "bu": 0
  }, {
    "name": "张江国际酒店公寓",
    "position": {
      "O": 31.23282,
      "M": 121.48003,
      "lng": 121.48003,
      "lat": 31.23282
    },
    "address": "福州路555号24k",
    "type": "商务住宅;住宅区;住宅区",
    "bu": 0
  }, {
    "name": "建发公园",
    "position": {
      "O": 31.281346,
      "M": 121.53254600000002,
      "lng": 121.532546,
      "lat": 31.281346
    },
    "address": "双阳路与控江路交叉口北50米",
    "type": "商务住宅;住宅区;住宅区",
    "bu": 0
  }, {
    "name": "印象生活广场",
    "position": {
      "O": 31.114941,
      "M": 121.59332999999998,
      "lng": 121.59333,
      "lat": 31.114941
    },
    "address": "周浦镇年家浜东路159号",
    "type": "商务住宅;楼宇;商住两用楼宇",
    "bu": 2
  }, {
    "name": "上海滨江名人苑(豪华江景公寓)",
    "position": {
      "O": 31.223381,
      "M": 121.49859200000003,
      "lng": 121.498592,
      "lat": 31.223381
    },
    "address": "中华路88弄1号楼1101室",
    "type": "商务住宅;商务住宅相关;商务住宅相关",
    "bu": 1
  }, {
    "name": "香梅和平御园",
    "position": {
      "O": 31.202255,
      "M": 121.649338,
      "lng": 121.649338,
      "lat": 31.202255
    },
    "address": "唐丰路(近唐兴路)",
    "type": "商务住宅;商务住宅相关;商务住宅相关",
    "bu": 0
  }, {
    "name": "东湖宾馆D座",
    "position": {
      "O": 31.215208,
      "M": 121.45436000000001,
      "lng": 121.45436,
      "lat": 31.215208
    },
    "address": "东湖路7号",
    "type": "商务住宅;楼宇;商务写字楼",
    "bu": 0
  }, {
    "name": "上海HavingFunparty别墅",
    "position": {
      "O": 31.117258,
      "M": 121.45897100000002,
      "lng": 121.458971,
      "lat": 31.117258
    },
    "address": "望月路882弄印象欧洲别墅(莘庄工业区)",
    "type": "商务住宅;住宅区;别墅",
    "bu": 0
  }, {
    "name": "东湖宾馆F座",
    "position": {
      "O": 31.215565,
      "M": 121.45426199999997,
      "lng": 121.454262,
      "lat": 31.215565
    },
    "address": "东湖路7号",
    "type": "商务住宅;楼宇;商务写字楼",
    "bu": 2
  }, {
    "name": "东湖宾馆E座",
    "position": {
      "O": 31.215399,
      "M": 121.45420000000001,
      "lng": 121.4542,
      "lat": 31.215399
    },
    "address": "东湖路7号",
    "type": "商务住宅;楼宇;商务写字楼",
    "bu": 0
  }, {
    "name": "东湖宾馆B座",
    "position": {
      "O": 31.215689,
      "M": 121.45515,
      "lng": 121.45515,
      "lat": 31.215689
    },
    "address": "东湖路7号",
    "type": "商务住宅;楼宇;商务写字楼",
    "bu": 0
  }, {
    "name": "保利蔚蓝林语",
    "position": {
      "O": 30.902732,
      "M": 121.90399200000002,
      "lng": 121.903992,
      "lat": 30.902732
    },
    "address": "浦东南汇新城茉莉路565号",
    "type": "商务住宅;住宅区;住宅小区",
    "bu": 0
  }, {
    "name": "黄浦滩名苑",
    "position": {
      "O": 31.201037,
      "M": 121.49318199999999,
      "lng": 121.493182,
      "lat": 31.201037
    },
    "address": "保屯路288弄之1-9号",
    "type": "商务住宅;住宅区;住宅小区",
    "bu": 2
  }, {
    "name": "奥林匹克花园2期",
    "position": {
      "O": 31.150471,
      "M": 121.32487600000002,
      "lng": 121.324876,
      "lat": 31.150471
    },
    "address": "涞寅路106号",
    "type": "商务住宅;住宅区;住宅小区",
    "bu": 0
  }, {
    "name": "鑫塔·水尚",
    "position": {
      "O": 31.140389,
      "M": 121.13930900000003,
      "lng": 121.139309,
      "lat": 31.140389
    },
    "address": "南淀浦河路5000弄",
    "type": "商务住宅;住宅区;住宅小区",
    "bu": 1
  }, {
    "name": "宝山工业园区(金石路)",
    "position": {
      "O": 31.456763,
      "M": 121.34825799999999,
      "lng": 121.348258,
      "lat": 31.456763
    },
    "address": "金石路1688号",
    "type": "商务住宅;产业园区;产业园区",
    "bu": 0
  }, {
    "name": "白领公寓",
    "position": {
      "O": 31.206131,
      "M": 121.613633,
      "lng": 121.613633,
      "lat": 31.206131
    },
    "address": "张江镇广兰路778号",
    "type": "商务住宅;商务住宅相关;商务住宅相关",
    "bu": 0
  }, {
    "name": "嘉领国际",
    "position": {
      "O": 31.367823,
      "M": 121.25977699999999,
      "lng": 121.259777,
      "lat": 31.367823
    },
    "address": "沪宜公路与叶城路路口",
    "type": "商务住宅;楼宇;商务写字楼",
    "bu": 0
  }, {
    "name": "淞南四村",
    "position": {
      "O": 31.348495,
      "M": 121.49080500000002,
      "lng": 121.490805,
      "lat": 31.348495
    },
    "address": "长江路440弄",
    "type": "商务住宅;住宅区;住宅小区",
    "bu": 0
  }, {
    "name": "碧云公馆(张杨路)",
    "position": {
      "O": 31.253762,
      "M": 121.57905399999999,
      "lng": 121.579054,
      "lat": 31.253762
    },
    "address": "张杨路3680号",
    "type": "商务住宅;住宅区;住宅小区",
    "bu": 0
  }, {
    "name": "人民大厦",
    "position": {
      "O": 31.230449,
      "M": 121.47360900000001,
      "lng": 121.473609,
      "lat": 31.230449
    },
    "address": "人民大道200号",
    "type": "商务住宅;商务住宅相关;商务住宅相关",
    "bu": 0
  }, {
    "name": "文华苑(车站北路)",
    "position": {
      "O": 31.296401,
      "M": 121.464878,
      "lng": 121.464878,
      "lat": 31.296401
    },
    "address": "车站北路727弄1-31号",
    "type": "商务住宅;住宅区;住宅小区",
    "bu": 1
  }, {
    "name": "同济大学科技园(分部)",
    "position": {
      "O": 31.274562,
      "M": 121.51897500000001,
      "lng": 121.518975,
      "lat": 31.274562
    },
    "address": "控江路1553-1555号上海信息技术大厦",
    "type": "商务住宅;产业园区;产业园区",
    "bu": 0
  }, {
    "name": "信息大楼(临虹路)",
    "position": {
      "O": 31.230674,
      "M": 121.34892400000001,
      "lng": 121.348924,
      "lat": 31.230674
    },
    "address": "新泾镇临虹路280弄1号",
    "type": "商务住宅;楼宇;商务写字楼",
    "bu": 0
  }, {
    "name": "绿地新里崴廉公馆",
    "position": {
      "O": 31.296879,
      "M": 121.316574,
      "lng": 121.316574,
      "lat": 31.296879
    },
    "address": "嘉定佳通路211号(真南路德华路交汇处)",
    "type": "商务住宅;住宅区;住宅小区",
    "bu": 1
  }, {
    "name": "恒文星尚湾",
    "position": {
      "O": 31.222865,
      "M": 121.230435,
      "lng": 121.230435,
      "lat": 31.222865
    },
    "address": "新凤中路899弄",
    "type": "商务住宅;住宅区;住宅小区",
    "bu": 0
  }, {
    "name": "伊顿公馆(观海路)",
    "position": {
      "O": 31.058335,
      "M": 121.78451999999999,
      "lng": 121.78452,
      "lat": 31.058335
    },
    "address": "观海路1118弄",
    "type": "商务住宅;住宅区;住宅小区",
    "bu": 0
  }, {
    "name": "绿地南桥新苑(西区二期)",
    "position": {
      "O": 30.926657,
      "M": 121.46880799999997,
      "lng": 121.468808,
      "lat": 30.926657
    },
    "address": "南桥镇环城东路885弄",
    "type": "商务住宅;住宅区;住宅小区",
    "bu": 0
  }, {
    "name": "绿中海",
    "position": {
      "O": 31.153174,
      "M": 121.20101999999997,
      "lng": 121.20102,
      "lat": 31.153174
    },
    "address": "赵巷路与赵华路交叉口东北角",
    "type": "商务住宅;住宅区;别墅",
    "bu": 0
  }, {
    "name": "宏立瑞园",
    "position": {
      "O": 31.309503,
      "M": 121.32244200000002,
      "lng": 121.322442,
      "lat": 31.309503
    },
    "address": "宝翔路560弄",
    "type": "商务住宅;住宅区;住宅小区",
    "bu": 2
  }, {
    "name": "金山工业区(金山工业区大道)",
    "position": {
      "O": 30.841644,
      "M": 121.348255,
      "lng": 121.348255,
      "lat": 30.841644
    },
    "address": "金山工业区大道100号",
    "type": "商务住宅;产业园区;产业园区",
    "bu": 0
  }, {
    "name": "世纪花苑(叶校路)",
    "position": {
      "O": 30.939742,
      "M": 121.31365,
      "lng": 121.31365,
      "lat": 30.939742
    },
    "address": "政府路738弄47号",
    "type": "商务住宅;住宅区;住宅小区",
    "bu": 0
  }, {
    "name": "合景领峰",
    "position": {
      "O": 31.336927,
      "M": 121.25714600000003,
      "lng": 121.257146,
      "lat": 31.336927
    },
    "address": "合作路719弄",
    "type": "商务住宅;住宅区;住宅小区",
    "bu": 0
  }, {
    "name": "颐景园(美艾路)",
    "position": {
      "O": 31.394629,
      "M": 121.362029,
      "lng": 121.362029,
      "lat": 31.394629
    },
    "address": "美艾路198弄1-117号",
    "type": "商务住宅;住宅区;住宅小区",
    "bu": 0
  }, {
    "name": "南翔渔邨",
    "position": {
      "O": 31.299238,
      "M": 121.30601300000001,
      "lng": 121.306013,
      "lat": 31.299238
    },
    "address": "德园路707号",
    "type": "餐饮服务;中餐厅;海鲜酒楼|商务住宅;住宅区;住宅小区",
    "bu": 0
  }, {
    "name": "富友嘉园南区",
    "position": {
      "O": 31.257871,
      "M": 121.32235700000001,
      "lng": 121.322357,
      "lat": 31.257871
    },
    "address": "临夏路999弄81号602室",
    "type": "商务住宅;住宅区;住宅小区",
    "bu": 0
  }, {
    "name": "西苑小区(平原街)",
    "position": {
      "O": 31.031634,
      "M": 121.13291300000003,
      "lng": 121.132913,
      "lat": 31.031634
    },
    "address": "平原街小区(小昆山镇)附近",
    "type": "商务住宅;住宅区;住宅小区",
    "bu": 0
  }, {
    "name": "明城海湾新苑",
    "position": {
      "O": 30.863007,
      "M": 121.559642,
      "lng": 121.559642,
      "lat": 30.863007
    },
    "address": "明城路1198弄",
    "type": "商务住宅;住宅区;住宅小区",
    "bu": 0
  }, {
    "name": "航华二村三街坊",
    "position": {
      "O": 31.170246,
      "M": 121.34697399999999,
      "lng": 121.346974,
      "lat": 31.170246
    },
    "address": "航新路115号-178号",
    "type": "商务住宅;住宅区;住宅小区",
    "bu": 1
  }, {
    "name": "e通世界北区",
    "position": {
      "O": 31.200295,
      "M": 121.26329099999998,
      "lng": 121.263291,
      "lat": 31.200295
    },
    "address": "徐泾镇华徐公路999号E通商务世界",
    "type": "商务住宅;楼宇;商务写字楼",
    "bu": 0
  }, {
    "name": "怀盛怡庭",
    "position": {
      "O": 31.140139,
      "M": 121.09544699999998,
      "lng": 121.095447,
      "lat": 31.140139
    },
    "address": "青浦漕程路199弄(近盈清路)",
    "type": "商务住宅;住宅区;住宅小区",
    "bu": 2
  }, {
    "name": "华宏商务中心",
    "position": {
      "O": 31.224259,
      "M": 121.39340099999998,
      "lng": 121.393401,
      "lat": 31.224259
    },
    "address": "大渡河路388弄5号",
    "type": "商务住宅;楼宇;商务写字楼",
    "bu": 0
  }, {
    "name": "吴兴公寓",
    "position": {
      "O": 31.20112,
      "M": 121.44527600000004,
      "lng": 121.445276,
      "lat": 31.20112
    },
    "address": "吴兴路219号",
    "type": "商务住宅;住宅区;住宅小区",
    "bu": 0
  }, {
    "name": "玉兰花苑",
    "position": {
      "O": 31.185858,
      "M": 121.43498999999997,
      "lng": 121.43499,
      "lat": 31.185858
    },
    "address": "蒲汇塘路50号",
    "type": "商务住宅;住宅区;住宅小区",
    "bu": 0
  }, {
    "name": "中恒苑",
    "position": {
      "O": 31.139753,
      "M": 121.44786299999998,
      "lng": 121.447863,
      "lat": 31.139753
    },
    "address": "上中路483弄55-11号",
    "type": "商务住宅;住宅区;住宅小区",
    "bu": 0
  }, {
    "name": "新漕河泾国际商务中心A座",
    "position": {
      "O": 31.164469,
      "M": 121.40425399999998,
      "lng": 121.404254,
      "lat": 31.164469
    },
    "address": "桂平路391号",
    "type": "商务住宅;楼宇;商务写字楼",
    "bu": 0
  }, {
    "name": "泓毅大厦",
    "position": {
      "O": 31.169469,
      "M": 121.38804900000002,
      "lng": 121.388049,
      "lat": 31.169469
    },
    "address": "虹桥镇万源路2158号",
    "type": "商务住宅;楼宇;商务写字楼",
    "bu": 0
  }]
}
