{"manhole":[{"name":"福赐花苑","position":{"O":31.296878,"M":121.48276699999997,"lng":121.482767,"lat":31.296878},"address":"车站北路24弄1-34号","type":"商务住宅;住宅区;住宅小区","bu":1},{"name":"郡江SOHO","position":{"O":31.264535,"M":121.537667,"lng":121.537667,"lat":31.264535},"address":"宁国路218号","type":"商务住宅;楼宇;商务写字楼","bu":0},{"name":"胜利小区","position":{"O":31.302506,"M":121.46612299999998,"lng":121.466123,"lat":31.302506},"address":"广粤路1401弄-1-50号","type":"商务住宅;住宅区;住宅小区","bu":2},{"name":"鹤北新村","position":{"O":31.011189,"M":121.41886399999999,"lng":121.418864,"lat":31.011189},"address":"鹤庆路136弄之1-278号","type":"商务住宅;住宅区;住宅小区","bu":0},{"name":"东南华庭","position":{"O":31.205692,"M":121.51704999999998,"lng":121.51705,"lat":31.205692},"address":"临沂北路150弄之1-3号","type":"商务住宅;住宅区;住宅小区","bu":0},{"name":"桃源里(惠民路)","position":{"O":31.252515,"M":121.51179000000002,"lng":121.51179,"lat":31.252515},"address":"惠民路73弄之4-114号","type":"商务住宅;住宅区;住宅小区","bu":0},{"name":"东华里","position":{"O":31.257092,"M":121.53900199999998,"lng":121.539002,"lat":31.257092},"address":"杨树浦路1581弄","type":"商务住宅;住宅区;住宅小区","bu":0},{"name":"广中三村","position":{"O":31.278835,"M":121.47632299999998,"lng":121.476323,"lat":31.278835},"address":"水电路541弄","type":"商务住宅;住宅区;住宅小区","bu":0},{"name":"汇园","position":{"O":31.281157,"M":121.60672999999997,"lng":121.60673,"lat":31.281157},"address":"巨峰路915弄2-10号","type":"商务住宅;住宅区;住宅小区","bu":1},{"name":"辽源二村","position":{"O":31.269876,"M":121.512112,"lng":121.512112,"lat":31.269876},"address":"打虎山路14弄","type":"商务住宅;住宅区;住宅小区","bu":0},{"name":"东广大厦","position":{"O":31.279635,"M":121.467694,"lng":121.467694,"lat":31.279635},"address":"广中路568号","type":"商务住宅;楼宇;商住两用楼宇","bu":0},{"name":"夏阳湖国际花园","position":{"O":31.146881,"M":121.13495999999998,"lng":121.13496,"lat":31.146881},"address":"华青南路610弄","type":"商务住宅;住宅区;住宅小区","bu":2},{"name":"由由五村","position":{"O":31.189583,"M":121.53210100000001,"lng":121.532101,"lat":31.189583},"address":"严中路300弄1-33号","type":"商务住宅;住宅区;住宅小区","bu":0},{"name":"体育公寓","position":{"O":31.173973,"M":121.42902700000002,"lng":121.429027,"lat":31.173973},"address":"田林东路360弄之1-2号","type":"商务住宅;住宅区;住宅小区","bu":0},{"name":"才茂公寓","position":{"O":31.277687,"M":121.51677699999999,"lng":121.516777,"lat":31.277687},"address":"本溪路138弄1-6号","type":"商务住宅;住宅区;住宅小区","bu":1},{"name":"安阁苑北区","position":{"O":31.091322,"M":121.59011299999997,"lng":121.590113,"lat":31.091322},"address":"瑞安路211弄-1-49号","type":"商务住宅;住宅区;住宅小区","bu":0},{"name":"浦发绿城(东泰林路)","position":{"O":31.148704,"M":121.54211299999997,"lng":121.542113,"lat":31.148704},"address":"永泰路2079弄64号","type":"商务住宅;住宅区;住宅小区","bu":0},{"name":"杉林新月家园","position":{"O":31.14081,"M":121.53153900000001,"lng":121.531539,"lat":31.14081},"address":"环林东路879弄11号","type":"商务住宅;住宅区;住宅小区","bu":0},{"name":"新里城和合苑","position":{"O":31.158224,"M":121.52648999999997,"lng":121.52649,"lat":31.158224},"address":"杨高南路4501弄57号","type":"商务住宅;住宅区;住宅小区","bu":0},{"name":"金杨新村八街坊","position":{"O":31.245332,"M":121.58440300000001,"lng":121.584403,"lat":31.245332},"address":"银山路370弄2-7号","type":"商务住宅;住宅区;住宅小区","bu":0},{"name":"张江微电子港","position":{"O":31.199324,"M":121.582223,"lng":121.582223,"lat":31.199324},"address":"张江高科技园区碧波路690号","type":"商务住宅;产业园区;产业园区","bu":0},{"name":"君御豪庭","position":{"O":31.234782,"M":121.44541900000002,"lng":121.445419,"lat":31.234782},"address":"西康路633弄1-13号","type":"商务住宅;住宅区;住宅小区","bu":0},{"name":"新中小区","position":{"O":31.216363,"M":121.42918400000002,"lng":121.429184,"lat":31.216363},"address":"西诸安浜路405弄2-20号双、425弄1-15号","type":"商务住宅;住宅区;住宅小区","bu":0},{"name":"紫云小区","position":{"O":31.208977,"M":121.40986800000002,"lng":121.409868,"lat":31.208977},"address":"天山路1761弄之1-37号","type":"商务住宅;住宅区;住宅小区","bu":0},{"name":"新会苑","position":{"O":31.23764,"M":121.43778800000001,"lng":121.437788,"lat":31.23764},"address":"胶州路960弄10号","type":"商务住宅;住宅区;住宅小区","bu":0},{"name":"花园公寓(南京西路)","position":{"O":31.227157,"M":121.45612699999998,"lng":121.456127,"lat":31.227157},"address":"南京西路1173弄之1-93号","type":"商务住宅;住宅区;住宅小区","bu":0},{"name":"华利公寓","position":{"O":31.179761,"M":121.41520000000003,"lng":121.4152,"lat":31.179761},"address":"桂林路575-595号","type":"商务住宅;住宅区;住宅小区","bu":0},{"name":"虹欣小区","position":{"O":31.192343,"M":121.41841299999999,"lng":121.418413,"lat":31.192343},"address":"中山西路1410弄1-29号","type":"商务住宅;住宅区;住宅小区","bu":2},{"name":"静安枫景苑(新闸路)","position":{"O":31.230887,"M":121.44696599999997,"lng":121.446966,"lat":31.230887},"address":"常德路500弄","type":"商务住宅;住宅区;住宅小区","bu":0},{"name":"威海别墅","position":{"O":31.225517,"M":121.45806500000003,"lng":121.458065,"lat":31.225517},"address":"威海路727弄之2-40号","type":"商务住宅;住宅区;别墅","bu":0},{"name":"安乐村","position":{"O":31.231804,"M":121.44115299999999,"lng":121.441153,"lat":31.231804},"address":"康定路818弄1-38号","type":"商务住宅;住宅区;住宅小区","bu":2},{"name":"高荣小区(万航渡路)","position":{"O":31.227391,"M":121.43279100000001,"lng":121.432791,"lat":31.227391},"address":"万航渡路661弄1-68号","type":"商务住宅;住宅区;住宅小区","bu":0},{"name":"大众家园(瞿溪路)","position":{"O":31.201578,"M":121.48109199999999,"lng":121.481092,"lat":31.201578},"address":"瞿溪路811弄1-14号","type":"商务住宅;住宅区;住宅小区","bu":0},{"name":"虹园八村","position":{"O":31.214235,"M":121.37140499999998,"lng":121.371405,"lat":31.214235},"address":"北渔路115弄1-49号","type":"商务住宅;住宅区;住宅小区","bu":0},{"name":"王满小区","position":{"O":31.195704,"M":121.37040999999999,"lng":121.37041,"lat":31.195704},"address":"哈密路1800弄1-36号","type":"商务住宅;住宅区;住宅小区","bu":2},{"name":"东陆新村四街坊","position":{"O":31.276568,"M":121.59407099999999,"lng":121.594071,"lat":31.276568},"address":"凌河路38弄1-74号","type":"商务住宅;住宅区;住宅小区","bu":0},{"name":"鞍山一村","position":{"O":31.276691,"M":121.51317599999999,"lng":121.513176,"lat":31.276691},"address":"锦西路48号","type":"商务住宅;住宅区;住宅小区","bu":0},{"name":"宝立公寓","position":{"O":31.261092,"M":121.52685400000001,"lng":121.526854,"lat":31.261092},"address":"惠民路1033弄8号604室","type":"商务住宅;住宅区;住宅小区","bu":0},{"name":"现代星洲城3期","position":{"O":31.267971,"M":121.52220699999998,"lng":121.522207,"lat":31.267971},"address":"江浦路1100弄1-24号","type":"商务住宅;住宅区;住宅小区","bu":0},{"name":"中原路34弄","position":{"O":31.309819,"M":121.53321900000003,"lng":121.533219,"lat":31.309819},"address":"中原路34弄1-26号","type":"商务住宅;住宅区;住宅小区","bu":0},{"name":"舒兰小区","position":{"O":31.281959,"M":121.540704,"lng":121.540704,"lat":31.281959},"address":"舒兰路61弄1-13号","type":"商务住宅;住宅区;住宅小区","bu":0},{"name":"松苑小区(松花江路)","position":{"O":31.287031,"M":121.52528999999998,"lng":121.52529,"lat":31.287031},"address":"松花江路1160弄1-28号","type":"商务住宅;住宅区;住宅小区","bu":0},{"name":"荣广商务中心B区","position":{"O":31.260842,"M":121.51336000000003,"lng":121.51336,"lat":31.260842},"address":"昆明路572号","type":"商务住宅;楼宇;商务写字楼","bu":0},{"name":"宝钢又一村","position":{"O":31.265734,"M":121.512633,"lng":121.512633,"lat":31.265734},"address":"周家嘴路1683弄","type":"商务住宅;住宅区;住宅小区","bu":1},{"name":"391弄小区","position":{"O":31.311516,"M":121.459451,"lng":121.459451,"lat":31.311516},"address":"阳曲路391弄之1-17号","type":"商务住宅;住宅区;住宅小区","bu":0},{"name":"谭家桥","position":{"O":31.270287,"M":121.49030800000003,"lng":121.490308,"lat":31.270287},"address":"祥德路谭家桥6-52号","type":"商务住宅;住宅区;住宅小区","bu":0},{"name":"东方都市景苑","position":{"O":31.260049,"M":121.500745,"lng":121.500745,"lat":31.260049},"address":"岳州路227、235","type":"商务住宅;住宅区;住宅小区","bu":0},{"name":"逸仙二村东区","position":{"O":31.314047,"M":121.49429800000001,"lng":121.494298,"lat":31.314047},"address":"三门路485弄53号","type":"商务住宅;住宅区;住宅小区","bu":0},{"name":"玉田小区","position":{"O":31.277785,"M":121.49450300000001,"lng":121.494503,"lat":31.277785},"address":"大连西路80号","type":"商务住宅;住宅区;住宅小区","bu":0},{"name":"文华苑(大华三路)","position":{"O":31.277934,"M":121.41802799999999,"lng":121.418028,"lat":31.277934},"address":"华灵路1180弄1-65号","type":"商务住宅;住宅区;住宅小区","bu":0}]}
