{
  "station": [{
    "name": "东航机组公寓",
    "position": {
      "O": 31.164403,
      "M": 121.774654,
      "lng": 121.774654,
      "lat": 31.164403
    },
    "address": "浦东国际机场河滨西路基地一路63号",
    "type": "商务住宅;住宅区;宿舍",
    "bu": 0
  }, {
    "name": "佳乐苑",
    "position": {
      "O": 31.163183,
      "M": 121.14094399999999,
      "lng": 121.140944,
      "lat": 31.163183
    },
    "address": "盈港东路8300弄81号",
    "type": "商务住宅;住宅区;住宅小区",
    "bu": 0
  }, {
    "name": "骏华苑",
    "position": {
      "O": 31.3004,
      "M": 121.41119400000002,
      "lng": 121.411194,
      "lat": 31.3004
    },
    "address": "南大路6弄1-32号",
    "type": "商务住宅;住宅区;住宅小区",
    "bu": 0
  }, {
    "name": "宁兴上尚湾",
    "position": {
      "O": 31.266664,
      "M": 121.33491200000003,
      "lng": 121.334912,
      "lat": 31.266664
    },
    "address": "江桥镇临洮路1000弄",
    "type": "商务住宅;住宅区;住宅小区",
    "bu": 0
  }, {
    "name": "九歌上郡(宜山路)",
    "position": {
      "O": 31.166745,
      "M": 121.38109600000001,
      "lng": 121.381096,
      "lat": 31.166745
    },
    "address": "宜山路2328弄7号",
    "type": "商务住宅;住宅区;住宅小区",
    "bu": 1
  }, {
    "name": "黄埔机房JF001",
    "position": {
      "O": 31.222521,
      "M": 121.486964,
      "lng": 121.486964,
      "lat": 31.222521
    },
    "address": "金家坊47弄1-33号",
    "type": "商务住宅;住宅区;住宅小区",
    "bu": 0
  }, {
    "name": "曹杨汽车公寓",
    "position": {
      "O": 31.237309,
      "M": 121.417394,
      "lng": 121.417394,
      "lat": 31.237309
    },
    "address": "曹杨路609弄之2-10号",
    "type": "商务住宅;住宅区;住宅小区",
    "bu": 0
  }, {
    "name": "黄埔机房JF002",
    "position": {
      "O": 31.224544,
      "M": 121.47917100000001,
      "lng": 121.479171,
      "lat": 31.224544
    },
    "address": "淮海中路99号大上海时代广场L1层",
    "type": "商务住宅;楼宇;商务写字楼",
    "bu": 0
  }, {
    "name": "黄埔机房JF003",
    "position": {
      "O": 31.224544,
      "M": 121.47917100000001,
      "lng": 121.477754,
      "lat": 31.216076
    },
    "address": "淮海中路99号大上海时代广场L1层",
    "type": "商务住宅;楼宇;商务写字楼",
    "bu": 0
  }, {
    "name": "黄埔机房JF004",
    "position": {
      "O": 31.224544,
      "M": 121.47917100000001,
      "lng": 121.489169,
      "lat": 31.210203
    },
    "address": "淮海中路99号大上海时代广场L1层",
    "type": "商务住宅;楼宇;商务写字楼",
    "bu": 0
  }, {
    "name": "浦江东旭公寓(东靖路)",
    "position": {
      "O": 31.290656,
      "M": 121.58529499999997,
      "lng": 121.585295,
      "lat": 31.290656
    },
    "address": "东靖路626弄1-25号",
    "type": "商务住宅;住宅区;住宅小区",
    "bu": 0
  }, {
    "name": "总统公寓(华山路)",
    "position": {
      "O": 31.213661,
      "M": 121.43887899999999,
      "lng": 121.438879,
      "lat": 31.213661
    },
    "address": "华山路868弄之1-6号",
    "type": "商务住宅;住宅区;住宅小区",
    "bu": 0
  }, {
    "name": "海德花园",
    "position": {
      "O": 31.391184,
      "M": 121.42291399999999,
      "lng": 121.422914,
      "lat": 31.391184
    },
    "address": "杨行镇蕴川路2488弄",
    "type": "商务住宅;住宅区;住宅小区",
    "bu": 0
  }, {
    "name": "盛宅一村",
    "position": {
      "O": 31.352852,
      "M": 121.411561,
      "lng": 121.411561,
      "lat": 31.352852
    },
    "address": "富联路128弄之1-95号",
    "type": "商务住宅;住宅区;住宅小区",
    "bu": 0
  }, {
    "name": "高东新村(光明路)",
    "position": {
      "O": 31.333725,
      "M": 121.61497600000001,
      "lng": 121.614976,
      "lat": 31.333725
    },
    "address": "光明路41-222弄",
    "type": "商务住宅;住宅区;住宅小区",
    "bu": 0
  }, {
    "name": "上海市工业综合开发区(南桥·环城北路)",
    "position": {
      "O": 30.953666,
      "M": 121.43360200000001,
      "lng": 121.433602,
      "lat": 30.953666
    },
    "address": "环城西路3111号110室",
    "type": "商务住宅;产业园区;产业园区",
    "bu": 0
  }, {
    "name": "莲浦府邸东区",
    "position": {
      "O": 31.140195,
      "M": 121.366285,
      "lng": 121.366285,
      "lat": 31.140195
    },
    "address": "宝铭路88弄",
    "type": "商务住宅;住宅区;住宅小区",
    "bu": 0
  }, {
    "name": "红明二村",
    "position": {
      "O": 31.162812,
      "M": 121.374056,
      "lng": 121.374056,
      "lat": 31.162812
    },
    "address": "漕宝路1565弄之1号-24号",
    "type": "商务住宅;住宅区;住宅小区",
    "bu": 0
  }, {
    "name": "臻园(古羊路)",
    "position": {
      "O": 31.190504,
      "M": 121.40180399999997,
      "lng": 121.401804,
      "lat": 31.190504
    },
    "address": "虹桥镇古羊路789号",
    "type": "商务住宅;住宅区;住宅小区",
    "bu": 0
  }, {
    "name": "海苑大厦(民生路)",
    "position": {
      "O": 31.235805,
      "M": 121.54502300000001,
      "lng": 121.545023,
      "lat": 31.235805
    },
    "address": "张杨路1662弄8-9号",
    "type": "商务住宅;住宅区;住宅小区",
    "bu": 0
  }, {
    "name": "徐汇临江豪园",
    "position": {
      "O": 31.18336,
      "M": 121.45303100000001,
      "lng": 121.453031,
      "lat": 31.18336
    },
    "address": "宛平南路921弄(龙华路口)",
    "type": "商务住宅;住宅区;住宅小区",
    "bu": 0
  }, {
    "name": "皇家公寓",
    "position": {
      "O": 31.215965,
      "M": 121.44671499999998,
      "lng": 121.446715,
      "lat": 31.215965
    },
    "address": "静安寺街道长乐路888号",
    "type": "商务住宅;住宅区;住宅小区",
    "bu": 0
  }]
}
